City,Latitude,Longitude
Cotonou,6.3570,2.4418
Abomey-Calavi,6.4484,2.3552
Porto-Novo,6.4969,2.6286
Parakou,9.3372,2.6303
Djougou,9.7085,1.6657
Bohicon,7.1792,2.0661
Ouidah,6.3604,2.0850
Kandi,11.1340,2.9386
Lokossa,6.6349,1.7169
Natitingou,10.3023,1.3796
